{"type":"FeatureCollection",
 "features":
 [{"type":"Feature",
   "properties":{"name":"986 7AM Roasters", "key":"673579986"},
   "geometry":
   {"type":"Point", "coordinates":[20.4724715, 44.805056]}},
  {"type":"Feature",
   "properties":
   {"name":"975 Adore chocolat shop | manufacture | coffee",
    "key":"902380975"},
   "geometry":
   {"type":"Point", "coordinates":[20.456821, 44.7869903]}},
  {"type":"Feature",
   "properties":{"name":"058 Ananda", "key":"782497058"},
   "geometry":
   {"type":"Point", "coordinates":[19.8395276, 45.2493376]}},
  {"type":"Feature",
   "properties":{"name":"231 April bar", "key":"1226392231"},
   "geometry":
   {"type":"Point", "coordinates":[20.4657284, 44.8168485]}},
  {"type":"Feature",
   "properties":
   {"name":"481 Artist Specialty Coffee", "key":"1413730481"},
   "geometry":
   {"type":"Point", "coordinates":[20.4654855, 44.8149429]}},
  {"type":"Feature",
   "properties":{"name":"570 BOEM-Bar Brasserie", "key":"944125570"},
   "geometry":
   {"type":"Point", "coordinates":[20.4653585, 44.8182835]}},
  {"type":"Feature",
   "properties":{"name":"288 Bacio Gelato", "key":"1366907288"},
   "geometry":
   {"type":"Point", "coordinates":[20.4603384, 44.8219116]}},
  {"type":"Feature",
   "properties":{"name":"050 Bad Sushi", "key":"639420050"},
   "geometry":
   {"type":"Point", "coordinates":[20.466228, 44.8159897]}},
  {"type":"Feature",
   "properties":
   {"name":"191 Belgrade Art Hotel, a member of Radisson Individuals",
    "key":"1784272191"},
   "geometry":
   {"type":"Point", "coordinates":[20.4578216, 44.8165994]}},
  {"type":"Feature",
   "properties":{"name":"269 Block 32", "key":"1432647269"},
   "geometry":
   {"type":"Point", "coordinates":[19.8302549, 45.2603789]}},
  {"type":"Feature",
   "properties":{"name":"629 Bon Vivant", "key":"719746629"},
   "geometry":
   {"type":"Point", "coordinates":[20.4645394, 44.8191514]}},
  {"type":"Feature",
   "properties":{"name":"242 Bruder BGD", "key":"1301421242"},
   "geometry":
   {"type":"Point", "coordinates":[20.4551533, 44.8040319]}},
  {"type":"Feature",
   "properties":{"name":"092 Bruno bar", "key":"59391092"},
   "geometry":
   {"type":"Point", "coordinates":[19.8252851, 45.2422504]}},
  {"type":"Feature",
   "properties":{"name":"754 Bulevar Books", "key":"401071754"},
   "geometry":
   {"type":"Point", "coordinates":[19.8453733, 45.2531798]}},
  {"type":"Feature",
   "properties":
   {"name":"386 Cafe \"Zona Industriale\"", "key":"1050219386"},
   "geometry":
   {"type":"Point", "coordinates":[20.470947, 44.8025388]}},
  {"type":"Feature",
   "properties":{"name":"910 Cafe & Factory 11", "key":"1263498910"},
   "geometry":
   {"type":"Point", "coordinates":[20.4169093, 44.7813329]}},
  {"type":"Feature",
   "properties":{"name":"635 Caffe SANTANA", "key":"1720963635"},
   "geometry":
   {"type":"Point", "coordinates":[20.3572178, 43.8792079]}},
  {"type":"Feature",
   "properties":{"name":"274 Casa Verde", "key":"404582274"},
   "geometry":
   {"type":"Point", "coordinates":[20.917184, 44.0144939]}},
  {"type":"Feature",
   "properties":
   {"name":"609 Cecina CAFFE poslastičarnica", "key":"1181114609"},
   "geometry":
   {"type":"Point", "coordinates":[19.6622355, 46.1019171]}},
  {"type":"Feature",
   "properties":{"name":"357 Coffee District", "key":"1618135357"},
   "geometry":
   {"type":"Point", "coordinates":[21.297741, 45.1181835]}},
  {"type":"Feature",
   "properties":{"name":"373 Coffee House 030", "key":"1470378373"},
   "geometry":
   {"type":"Point", "coordinates":[22.1011501, 44.0584732]}},
  {"type":"Feature",
   "properties":{"name":"159 Coffee Shop", "key":"426194159"},
   "geometry":
   {"type":"Point", "coordinates":[20.4875252, 44.7986352]}},
  {"type":"Feature",
   "properties":{"name":"034 Coffee Četiri", "key":"1101501034"},
   "geometry":
   {"type":"Point", "coordinates":[20.4621591, 44.8105515]}},
  {"type":"Feature",
   "properties":
   {"name":"904 Comida Sanchez - Mexican Restaurant",
    "key":"125507904"},
   "geometry":
   {"type":"Point", "coordinates":[19.8393788, 45.258439]}},
  {"type":"Feature",
   "properties":{"name":"215 Crni Ovan", "key":"264860215"},
   "geometry":
   {"type":"Point", "coordinates":[19.8482954, 45.2560476]}},
  {"type":"Feature",
   "properties":{"name":"689 D'oliva bar", "key":"597937689"},
   "geometry":{"type":"Point", "coordinates":[20.46581, 44.8212249]}},
  {"type":"Feature",
   "properties":{"name":"203 Delta Planet Niš", "key":"673807203"},
   "geometry":
   {"type":"Point", "coordinates":[21.9110159, 43.3244918]}},
  {"type":"Feature",
   "properties":{"name":"988 DiVino vinoteka", "key":"1575759988"},
   "geometry":
   {"type":"Point", "coordinates":[20.3432043, 43.8887887]}},
  {"type":"Feature",
   "properties":{"name":"964 Dice Arena", "key":"1842878964"},
   "geometry":
   {"type":"Point", "coordinates":[20.4644465, 44.8060638]}},
  {"type":"Feature",
   "properties":{"name":"951 Dorcol Store", "key":"58314951"},
   "geometry":
   {"type":"Point", "coordinates":[20.4611052, 44.8215978]}},
  {"type":"Feature",
   "properties":{"name":"455 Drago mi je", "key":"1054226455"},
   "geometry":
   {"type":"Point", "coordinates":[19.8404449, 45.2535444]}},
  {"type":"Feature",
   "properties":
   {"name":"680 Drustveni kutak Mozaik", "key":"1665757680"},
   "geometry":
   {"type":"Point", "coordinates":[20.6296233, 45.1107189]}},
  {"type":"Feature",
   "properties":{"name":"692 Due Sorelle", "key":"1681054692"},
   "geometry":
   {"type":"Point", "coordinates":[20.4904972, 44.8044737]}},
  {"type":"Feature",
   "properties":
   {"name":"836 Dusha Specialty Coffee", "key":"1463349836"},
   "geometry":
   {"type":"Point", "coordinates":[20.4797176, 44.8004176]}},
  {"type":"Feature",
   "properties":{"name":"828 FREESHKA COFFEE Co.", "key":"31884828"},
   "geometry":
   {"type":"Point", "coordinates":[19.839275, 45.2469744]}},
  {"type":"Feature",
   "properties":{"name":"231 Fine Sushi", "key":"215599231"},
   "geometry":
   {"type":"Point", "coordinates":[20.4778752, 44.8033771]}},
  {"type":"Feature",
   "properties":{"name":"980 Fini", "key":"2063172980"},
   "geometry":
   {"type":"Point", "coordinates":[19.8444736, 45.2574472]}},
  {"type":"Feature",
   "properties":{"name":"139 Fruška151", "key":"518157139"},
   "geometry":
   {"type":"Point", "coordinates":[19.9365494, 45.1850063]}},
  {"type":"Feature",
   "properties":{"name":"549 Galija", "key":"1474600549"},
   "geometry":
   {"type":"Point", "coordinates":[20.3483172, 43.8911856]}},
  {"type":"Feature",
   "properties":{"name":"546 Gostoprimnica", "key":"428313546"},
   "geometry":
   {"type":"Point", "coordinates":[22.2744054, 43.9026007]}},
  {"type":"Feature",
   "properties":{"name":"983 Ima Sushi", "key":"1869242983"},
   "geometry":
   {"type":"Point", "coordinates":[20.4611411, 44.8215921]}},
  {"type":"Feature",
   "properties":
   {"name":"330 Ispeci pa reci Zvezdara", "key":"1093520330"},
   "geometry":
   {"type":"Point", "coordinates":[20.4931559, 44.7964361]}},
  {"type":"Feature",
   "properties":{"name":"393 Izlet", "key":"1263788393"},
   "geometry":
   {"type":"Point", "coordinates":[19.8516777, 45.2560558]}},
  {"type":"Feature",
   "properties":{"name":"640 Juice bar HeyDay", "key":"1018636640"},
   "geometry":
   {"type":"Point", "coordinates":[19.8381815, 45.2492711]}},
  {"type":"Feature",
   "properties":{"name":"864 Kafetea", "key":"1388718864"},
   "geometry":
   {"type":"Point", "coordinates":[19.8521021, 45.2615304]}},
  {"type":"Feature",
   "properties":{"name":"909 Kafeterija Gnezdo", "key":"1455783909"},
   "geometry":
   {"type":"Point", "coordinates":[21.2562948, 43.9819128]}},
  {"type":"Feature",
   "properties":
   {"name":"704 Kafeterija Kofilin - Кофейня Кофилин",
    "key":"404236704"},
   "geometry":
   {"type":"Point", "coordinates":[20.4644119, 44.8088468]}},
  {"type":"Feature",
   "properties":
   {"name":"765 Kafeterija „Bukmarker“ | Delfi knjižara SKC",
    "key":"1387918765"},
   "geometry":
   {"type":"Point", "coordinates":[20.4640596, 44.8060806]}},
  {"type":"Feature",
   "properties":{"name":"709 Kafić BeWell energy", "key":"716087709"},
   "geometry":
   {"type":"Point", "coordinates":[20.492269, 44.7974816]}},
  {"type":"Feature",
   "properties":{"name":"520 Kaži Važi", "key":"548272520"},
   "geometry":
   {"type":"Point", "coordinates":[20.4579601, 44.8095823]}},
  {"type":"Feature",
   "properties":{"name":"222 Keg&Krigla", "key":"234390222"},
   "geometry":
   {"type":"Point", "coordinates":[20.3505327, 43.8869873]}},
  {"type":"Feature",
   "properties":
   {"name":"034 Klein House Social Bar and Art Gallery",
    "key":"1979405034"},
   "geometry":
   {"type":"Point", "coordinates":[19.6684556, 46.1011811]}},
  {"type":"Feature",
   "properties":{"name":"329 Kuca coffee", "key":"2135394329"},
   "geometry":
   {"type":"Point", "coordinates":[20.4907075, 44.7874597]}},
  {"type":"Feature",
   "properties":{"name":"180 LUFF GELATO Vračar", "key":"1981937180"},
   "geometry":
   {"type":"Point", "coordinates":[20.4690059, 44.8037052]}},
  {"type":"Feature",
   "properties":
   {"name":"958 LUMI - Specialty Coffee", "key":"1727952958"},
   "geometry":
   {"type":"Point", "coordinates":[20.4700236, 44.8028279]}},
  {"type":"Feature",
   "properties":{"name":"678 Le Bol", "key":"1671244678"},
   "geometry":
   {"type":"Point", "coordinates":[19.8496149, 45.2558507]}},
  {"type":"Feature",
   "properties":
   {"name":"255 Ljiljan cocktail bar", "key":"836321255"},
   "geometry":
   {"type":"Point", "coordinates":[19.6716677, 46.0880927]}},
  {"type":"Feature",
   "properties":{"name":"285 Mali prag", "key":"1582946285"},
   "geometry":
   {"type":"Point", "coordinates":[20.4594009, 44.8108866]}},
  {"type":"Feature",
   "properties":{"name":"920 Martin Kafa", "key":"1086033920"},
   "geometry":
   {"type":"Point", "coordinates":[19.8420512, 45.2517567]}},
  {"type":"Feature",
   "properties":{"name":"891 Martin kafa", "key":"1320144891"},
   "geometry":
   {"type":"Point", "coordinates":[19.8499818, 45.2568103]}},
  {"type":"Feature",
   "properties":{"name":"568 Max Bakery", "key":"1967361568"},
   "geometry":{"type":"Point", "coordinates":[21.29745, 45.1214395]}},
  {"type":"Feature",
   "properties":
   {"name":"513 Mehurić champagne & bar", "key":"80314513"},
   "geometry":
   {"type":"Point", "coordinates":[20.4713197, 44.8122585]}},
  {"type":"Feature",
   "properties":{"name":"297 Mesara Morava", "key":"1170860297"},
   "geometry":
   {"type":"Point", "coordinates":[20.4716841, 44.8114216]}},
  {"type":"Feature",
   "properties":{"name":"038 Mi hleb", "key":"905426038"},
   "geometry":
   {"type":"Point", "coordinates":[20.4745542, 44.803832]}},
  {"type":"Feature",
   "properties":
   {"name":"030 Miamiam Restaurant & Catering", "key":"998684030"},
   "geometry":
   {"type":"Point", "coordinates":[20.4749719, 44.801342]}},
  {"type":"Feature",
   "properties":{"name":"982 Mimosa", "key":"857165982"},
   "geometry":
   {"type":"Point", "coordinates":[20.4666021, 44.8049006]}},
  {"type":"Feature",
   "properties":{"name":"503 Monfrère caffe", "key":"1985129503"},
   "geometry":
   {"type":"Point", "coordinates":[20.5775359, 44.9173288]}},
  {"type":"Feature",
   "properties":{"name":"801 Moxy Belgrade", "key":"1309690801"},
   "geometry":
   {"type":"Point", "coordinates":[20.4654736, 44.8056323]}},
  {"type":"Feature",
   "properties":{"name":"928 Nar Bar", "key":"1521811928"},
   "geometry":
   {"type":"Point", "coordinates":[20.4845157, 44.8007892]}},
  {"type":"Feature",
   "properties":{"name":"361 Nekrasova The Bar", "key":"1567755361"},
   "geometry":
   {"type":"Point", "coordinates":[20.4735437, 44.8053527]}},
  {"type":"Feature",
   "properties":
   {"name":"163 Noku Espresso and more", "key":"646642163"},
   "geometry":
   {"type":"Point", "coordinates":[20.5373717, 44.8129607]}},
  {"type":"Feature",
   "properties":{"name":"333 Nomad Bar", "key":"1391688333"},
   "geometry":
   {"type":"Point", "coordinates":[19.8499646, 45.2562371]}},
  {"type":"Feature",
   "properties":{"name":"856 OVO bistro", "key":"1951735856"},
   "geometry":
   {"type":"Point", "coordinates":[20.4677872, 44.8142784]}},
  {"type":"Feature",
   "properties":{"name":"130 PASTIS bistro", "key":"2110920130"},
   "geometry":
   {"type":"Point", "coordinates":[20.4616264, 44.8213976]}},
  {"type":"Feature",
   "properties":
   {"name":"413 POSH - Fish & Steak", "key":"1398992413"},
   "geometry":
   {"type":"Point", "coordinates":[20.4180644, 44.7844767]}},
  {"type":"Feature",
   "properties":
   {"name":"804 PRANA Brunch & More", "key":"2057954804"},
   "geometry":
   {"type":"Point", "coordinates":[20.4668075, 44.8152719]}},
  {"type":"Feature",
   "properties":
   {"name":"711 Pane E Vino, WEST 65", "key":"1908931711"},
   "geometry":
   {"type":"Point", "coordinates":[20.4010037, 44.812363]}},
  {"type":"Feature",
   "properties":{"name":"904 Panilulac", "key":"1665267904"},
   "geometry":
   {"type":"Point", "coordinates":[20.4722698, 44.8111154]}},
  {"type":"Feature",
   "properties":
   {"name":"555 Panuša Palačinkarnica", "key":"594121555"},
   "geometry":
   {"type":"Point", "coordinates":[19.831763, 45.2546316]}},
  {"type":"Feature",
   "properties":{"name":"141 Patisserie Mali Trg", "key":"726336141"},
   "geometry":
   {"type":"Point", "coordinates":[19.668057, 46.0999816]}},
  {"type":"Feature",
   "properties":
   {"name":"816 Picador Cafe & Restaurant", "key":"806052816"},
   "geometry":
   {"type":"Point", "coordinates":[20.8965122, 44.0079843]}},
  {"type":"Feature",
   "properties":
   {"name":"241 Pietra Pizzeria & Cocktail Bar", "key":"1526658241"},
   "geometry":
   {"type":"Point", "coordinates":[20.4732625, 44.8053314]}},
  {"type":"Feature",
   "properties":
   {"name":"580 Pizzagram Beo Shopping Center", "key":"1248284580"},
   "geometry":
   {"type":"Point", "coordinates":[20.501029, 44.7864181]}},
  {"type":"Feature",
   "properties":{"name":"894 Pizzagram Njegoševa", "key":"828573894"},
   "geometry":
   {"type":"Point", "coordinates":[20.4692391, 44.8036143]}},
  {"type":"Feature",
   "properties":
   {"name":"654 Poslastičarnica Šuma (The Forest)",
    "key":"1141349654"},
   "geometry":
   {"type":"Point", "coordinates":[20.4630088, 44.8172676]}},
  {"type":"Feature",
   "properties":{"name":"803 Promenada", "key":"36696803"},
   "geometry":
   {"type":"Point", "coordinates":[19.8424522, 45.2444471]}},
  {"type":"Feature",
   "properties":{"name":"095 Puter", "key":"1313891095"},
   "geometry":
   {"type":"Point", "coordinates":[20.4747387, 44.7999207]}},
  {"type":"Feature",
   "properties":{"name":"371 Rea Kids igraonica", "key":"432666371"},
   "geometry":
   {"type":"Point", "coordinates":[21.2945565, 45.1208088]}},
  {"type":"Feature",
   "properties":
   {"name":"975 Rocket Coffee, specialty coffee shop",
    "key":"1187475975"},
   "geometry":
   {"type":"Point", "coordinates":[20.4515047, 44.8143955]}},
  {"type":"Feature",
   "properties":
   {"name":"079 Rustique Zanatska pekara", "key":"1685480079"},
   "geometry":
   {"type":"Point", "coordinates":[19.6602539, 46.1007979]}},
  {"type":"Feature",
   "properties":{"name":"040 S N I P P S T E R", "key":"2013743040"},
   "geometry":
   {"type":"Point", "coordinates":[19.8195656, 45.256868]}},
  {"type":"Feature",
   "properties":{"name":"830 SLOJ bakery", "key":"1582711830"},
   "geometry":
   {"type":"Point", "coordinates":[20.4851449, 44.7985037]}},
  {"type":"Feature",
   "properties":{"name":"062 SPOT", "key":"1019687062"},
   "geometry":
   {"type":"Point", "coordinates":[19.8401058, 45.2498347]}},
  {"type":"Feature",
   "properties":{"name":"402 Samo Dobra Kafa", "key":"419105402"},
   "geometry":
   {"type":"Point", "coordinates":[19.6921476, 44.7582055]}},
  {"type":"Feature",
   "properties":{"name":"492 SmartLife restoran", "key":"1152900492"},
   "geometry":
   {"type":"Point", "coordinates":[20.4602827, 44.8140667]}},
  {"type":"Feature",
   "properties":{"name":"728 Sonder.Belgrade", "key":"993449728"},
   "geometry":
   {"type":"Point", "coordinates":[20.4738707, 44.8017302]}},
  {"type":"Feature",
   "properties":{"name":"628 Spoon Kafeterija", "key":"2034931628"},
   "geometry":
   {"type":"Point", "coordinates":[20.4654594, 44.8156204]}},
  {"type":"Feature",
   "properties":{"name":"072 Sweet & green", "key":"1116718072"},
   "geometry":
   {"type":"Point", "coordinates":[19.8467556, 45.2559413]}},
  {"type":"Feature",
   "properties":
   {"name":"052 Thyme - StreetFood & Breakfast", "key":"477649052"},
   "geometry":{"type":"Point", "coordinates":[20.4177545, 44.78378]}},
  {"type":"Feature",
   "properties":
   {"name":"410 Tischler tobacco & coffee", "key":"20031410"},
   "geometry":
   {"type":"Point", "coordinates":[19.8334927, 45.2470777]}},
  {"type":"Feature",
   "properties":{"name":"923 Tokio Sushi", "key":"17632923"},
   "geometry":{"type":"Point", "coordinates":[19.84742, 45.2574959]}},
  {"type":"Feature",
   "properties":
   {"name":"955 Two Dogs Cafe \/ Dve kere", "key":"780896955"},
   "geometry":
   {"type":"Point", "coordinates":[20.6472949, 44.8702437]}},
  {"type":"Feature",
   "properties":{"name":"942 Urbano Kafa & Voće", "key":"800239942"},
   "geometry":
   {"type":"Point", "coordinates":[19.8329469, 45.2486399]}},
  {"type":"Feature",
   "properties":
   {"name":"331 Urma poslastičarnica", "key":"361628331"},
   "geometry":
   {"type":"Point", "coordinates":[20.4840505, 44.800468]}},
  {"type":"Feature",
   "properties":
   {"name":
    "343 VERA CAFE — Comfort Food, Specialty Coffee & Wine in Belgrade",
    "key":"784218343"},
   "geometry":
   {"type":"Point", "coordinates":[20.4544822, 44.8184327]}},
  {"type":"Feature",
   "properties":{"name":"640 Vege Art", "key":"1034777640"},
   "geometry":
   {"type":"Point", "coordinates":[20.4010886, 45.3750186]}},
  {"type":"Feature",
   "properties":{"name":"880 Vege Vegan", "key":"948724880"},
   "geometry":
   {"type":"Point", "coordinates":[19.844625, 45.2564854]}},
  {"type":"Feature",
   "properties":
   {"name":"854 Vinarija Frunzalerovic", "key":"1813742854"},
   "geometry":
   {"type":"Point", "coordinates":[22.4884559, 44.2120817]}},
  {"type":"Feature",
   "properties":{"name":"488 Way Cup kafeterija", "key":"166500488"},
   "geometry":
   {"type":"Point", "coordinates":[20.4997669, 44.7920751]}},
  {"type":"Feature",
   "properties":{"name":"943 Wine community bar", "key":"1515548943"},
   "geometry":
   {"type":"Point", "coordinates":[19.6680281, 46.1005223]}},
  {"type":"Feature",
   "properties":
   {"name":"776 Šećernema - Vegan Desserts & Coffee",
    "key":"1715565776"},
   "geometry":
   {"type":"Point", "coordinates":[19.8392648, 45.2489528]}},
  {"type":"Feature",
   "properties":
   {"name":"044 Šećernema Liman - Vegan Desserts & Coffee",
    "key":"1686899044"},
   "geometry":
   {"type":"Point", "coordinates":[19.8476184, 45.2411995]}},
  {"type":"Feature",
   "properties":{"name":"052 Арт вајн", "key":"667614052"},
   "geometry":
   {"type":"Point", "coordinates":[20.8872904, 43.9626942]}},
  {"type":"Feature",
   "properties":{"name":"095 Бициклана", "key":"1627172095"},
   "geometry":
   {"type":"Point", "coordinates":[19.8474436, 45.2399804]}},
  {"type":"Feature",
   "properties":{"name":"870 Жалфија - Žalfija", "key":"360395870"},
   "geometry":
   {"type":"Point", "coordinates":[20.5425009, 44.7891763]}},
  {"type":"Feature",
   "properties":{"name":"972 Кућа чаја", "key":"514233972"},
   "geometry":
   {"type":"Point", "coordinates":[20.4758248, 44.8026465]}},
  {"type":"Feature",
   "properties":{"name":"725 Мимоза", "key":"1688846725"},
   "geometry":
   {"type":"Point", "coordinates":[20.9271621, 44.6646598]}},
  {"type":"Feature",
   "properties":{"name":"021 Орашац", "key":"2035976021"},
   "geometry":
   {"type":"Point", "coordinates":[20.478627, 44.8037935]}},
  {"type":"Feature",
   "properties":
   {"name":"052 Посластичарница Блаха Лујза", "key":"886651052"},
   "geometry":
   {"type":"Point", "coordinates":[19.6668032, 46.0986792]}},
  {"type":"Feature",
   "properties":{"name":"826 Ужитак Кафе", "key":"1300590826"},
   "geometry":
   {"type":"Point", "coordinates":[20.4662823, 44.8153549]}},
  {"type":"Feature",
   "properties":{"name":"702 Фиго", "key":"1820450702"},
   "geometry":
   {"type":"Point", "coordinates":[20.4721695, 44.8113835]}},
  {"type":"Feature",
   "properties":{"name":"702 Фиго", "key":"1820450702"},
   "geometry":
   {"type":"Point", "coordinates":[20.4721695, 44.8113835]}}]}
