{"type":"FeatureCollection","features":[{"type":"Feature","properties":{"name:sr":"36000 Краљево 6","opening_hours":"Mo-Fr 07:00-19:00; Sa 07:00-14:00; PH off","addr:housenumber":"6","name":"36000 Краљево 6","amenity":"post_office","phone":"+381 36 303-066;+381 36 303-062;+381 36 303-063","ref":"36000","name:sr-Latn":"36000 Kraljevo 6","addr:pak":"562005","addr:street":"Јована Дерока"},"geometry":{"type":"Point","coordinates":[20.6611463310104,43.7305444320479]}},{"type":"Feature","properties":{"name:sr":"36103 Краљево 3","opening_hours":"Mo-Fr 07:00-19:00; Sa 07:00-14:00; PH off","addr:housenumber":"4","name":"36103 Краљево 3","amenity":"post_office","phone":"+381 36 303-069;+381 36 303-070;+381 36 303-071","ref":"36103","name:sr-Latn":"36103 Kraljevo 3","addr:pak":"563305","addr:street":"Излетничка"},"geometry":{"type":"Point","coordinates":[20.69209030431,43.7107842181125]}},{"type":"Feature","properties":{"amenity":"post_office","name":"36203 Адрани","name:sr":"36203 Адрани","name:sr-Latn":"36203 Adrani","ref":"36203","opening_hours":"Mo-Fr 08:30-15:00; PH off","phone":"+381 36 841-233","addr:pak":"564901"},"geometry":{"type":"Point","coordinates":[20.6549126932147,43.7576713368577]}},{"type":"Feature","properties":{"amenity":"post_office","name":"36204 Лађевци","name:sr":"36204 Лађевци","name:sr-Latn":"36204 Lađevci","ref":"36204","opening_hours":"Mo-Fr 09:00-15:00; PH off","phone":"+381 36 303-121","addr:pak":"565001"},"geometry":{"type":"Point","coordinates":[20.6108787208298,43.8165408602028]}},{"type":"Feature","properties":{"amenity":"post_office","name":"36208 Сирча","name:sr":"36208 Сирча","name:sr-Latn":"36208 Sirča","ref":"36208","opening_hours":"Mo-Fr 08:00-15:00; PH off","phone":"+381 36 5446-651","addr:pak":"565942"},"geometry":{"type":"Point","coordinates":[20.7210875946125,43.746473960786]}},{"type":"Feature","properties":{"name:sr":"36101 Краљево 1","opening_hours":"Mo-Fr 07:00-19:00; Sa 07:00-15:00; PH off","addr:housenumber":"37","name":"36101 Краљево 1","amenity":"post_office","phone":"+381 36 303-013","ref":"36101","name:sr-Latn":"36101 Kraljevo 1","addr:pak":"560303","addr:street":"Цара Лазара"},"geometry":{"type":"Point","coordinates":[20.6882554037884,43.7243290388827]}},{"type":"Feature","properties":{"name:sr":"36105 Краљево 5","opening_hours":"Mo-Fr 07:00-19:00; Sa 07:00-13:00; PH off","addr:housenumber":"69","name":"36105 Краљево 5","amenity":"post_office","phone":"+381 36 351-222;+381 36 331-559","ref":"36105","name:sr-Latn":"36105 Kraljevo 5","addr:pak":"560541","addr:street":"Обилићева"},"geometry":{"type":"Point","coordinates":[20.695543492203,43.7255165217691]}},{"type":"Feature","properties":{"name:sr":"36102 Краљево 2","opening_hours":"Mo-Fr 08:00-19:00; Sa 08:00-14:00; PH off","addr:housenumber":"72","name":"36102 Краљево 2","amenity":"post_office","phone":"+381 36 303-111;+381 36 312-286","ref":"36102","name:sr-Latn":"36102 Kraljevo 2","addr:pak":"560609","addr:street":"Хајдук Вељкова"},"geometry":{"type":"Point","coordinates":[20.6946167659582,43.7283094778409]}},{"type":"Feature","properties":{"name:sr":"36104 Краљево 4","opening_hours":"Mo-Fr 07:30-14:30; PH off","addr:housenumber":"224","name":"36104 Краљево 4","amenity":"post_office","phone":"+381 36 355-312","ref":"36104","name:sr-Latn":"36104 Kraljevo 4","addr:pak":"561846","addr:street":"Карађорђева"},"geometry":{"type":"Point","coordinates":[20.658268628186,43.724562605829]}},{"type":"Feature","properties":{"name:sr":"36107 Краљево 7","opening_hours":"Mo-Fr 08:00-14:00; Sa 08:00-13:00; PH off","addr:housenumber":"98","name":"36107 Краљево 7","amenity":"post_office","phone":"+381 36 362-944","ref":"36107","name:sr-Latn":"36107 Kraljevo 7","addr:pak":"563636","addr:street":"Жичка"},"geometry":{"type":"Point","coordinates":[20.6693742004298,43.7088336571149]}},{"type":"Feature","properties":{"name:sr":"36108 Краљево 8","opening_hours":"Mo-Fr 07:00-14:00; PH off","addr:housenumber":"24","name":"36108 Краљево 8","amenity":"post_office","phone":"+381 36 372-891","ref":"36108","name:sr-Latn":"36108 Kraljevo 8","addr:pak":"563013","addr:street":"Душана Поповића"},"geometry":{"type":"Point","coordinates":[20.6913360459595,43.7168492833534]}},{"type":"Feature","properties":{"name:sr":"36109 Краљево 9","opening_hours":"Mo-Fr 08:00-19:00; Sa 07:00-14:00; PH off","addr:housenumber":"45","name":"36109 Краљево 9","amenity":"post_office","phone":"+381 36 303-077","ref":"36109","name:sr-Latn":"36109 Kraljevo 9","addr:pak":"561616","addr:street":"Војводе Степе"},"geometry":{"type":"Point","coordinates":[20.681129852408,43.7290307027656]}}]}