{"type":"FeatureCollection","features":[{"type":"Feature","properties":{"ref:RS:nkd":"SK2083","heritage:website":"https:\/\/nasledje.gov.rs\/index.cfm\/spomenici\/pregled_spomenika?spomenik_id=100060","heritage:RS:inscription_date":"2011-02-18","protect_class":"22","heritage":"2","heritage:RS:jurisdiction":"Завод за заштиту споменика културе Ниш","heritage:RS:name":"Зграда Народног музеја у Нишу"},"geometry":{"type":"Point","coordinates":[21.893689,43.320946]}},{"type":"Feature","properties":{"ref:RS:nkd":"SK685","heritage:website":"https:\/\/nasledje.gov.rs\/index.cfm\/spomenici\/pregled_spomenika?spomenik_id=100092","heritage:RS:inscription_date":"1986-12-25","protect_class":"22","heritage":"2","heritage:RS:jurisdiction":"Завод за заштиту споменика културе Ниш","heritage:RS:name":"Зграда са казанџијским радионицама"},"geometry":{"type":"Point","coordinates":[21.895551,43.317882]}},{"type":"Feature","properties":{"ref:RS:nkd":"SK845","heritage:website":"https:\/\/nasledje.gov.rs\/index.cfm\/spomenici\/pregled_spomenika?spomenik_id=100169","heritage:RS:inscription_date":"1990-02-11","protect_class":"22","heritage":"2","heritage:RS:jurisdiction":"Завод за заштиту споменика културе Ниш","heritage:RS:name":"Зграда у Ул. М.Тита 122"},"geometry":{"type":"Point","coordinates":[21.894415,43.316117]}},{"type":"Feature","properties":{"ref:RS:nkd":"SK840","heritage:website":"https:\/\/nasledje.gov.rs\/index.cfm\/spomenici\/pregled_spomenika?spomenik_id=100171","heritage:RS:inscription_date":"1990-02-11","protect_class":"22","heritage":"2","heritage:RS:jurisdiction":"Завод за заштиту споменика културе Ниш","heritage:RS:name":"Зграда у Ул. М.Тита 28"},"geometry":{"type":"Point","coordinates":[21.895053,43.319777]}},{"type":"Feature","properties":{"ref:RS:nkd":"SK747","heritage:website":"https:\/\/nasledje.gov.rs\/index.cfm\/spomenici\/pregled_spomenika?spomenik_id=100428","wikipedia":"sr:Војна болница Ниш","wikidata":"Q16082751","heritage:RS:jurisdiction":"Завод за заштиту споменика културе Ниш","protect_class":"22","heritage":"2","heritage:RS:inscription_date":"1988-02-17","heritage:RS:name":"Зграда Прве војне болнице"},"geometry":{"type":"Point","coordinates":[21.920664,43.312368]}},{"type":"Feature","properties":{"ref:RS:nkd":"SK749","heritage:website":"https:\/\/nasledje.gov.rs\/index.cfm\/spomenici\/pregled_spomenika?spomenik_id=102327","heritage:RS:inscription_date":"1988-02-17","protect_class":"22","heritage":"2","heritage:RS:jurisdiction":"Завод за заштиту споменика културе Ниш","heritage:RS:name":"Зграда Општинске конференције ССРН"},"geometry":{"type":"Point","coordinates":[21.89647,43.320159]}},{"type":"Feature","properties":{"ref:RS:nkd":"SK859","heritage:website":"https:\/\/nasledje.gov.rs\/index.cfm\/spomenici\/pregled_spomenika?spomenik_id=102432","wikipedia":"sr:Зграда Председништва СО Ниш","wikidata":"Q16085401","heritage:RS:jurisdiction":"Завод за заштиту споменика културе Ниш","protect_class":"22","heritage":"2","heritage:RS:inscription_date":"1990-02-11","heritage:RS:name":"Зграда Председништва СО Ниш"},"geometry":{"type":"Point","coordinates":[21.89617,43.322002]}},{"type":"Feature","properties":{"ref:RS:nkd":"SK839","heritage:website":"https:\/\/nasledje.gov.rs\/index.cfm\/spomenici\/pregled_spomenika?spomenik_id=102437","heritage:RS:inscription_date":"1990-02-11","protect_class":"22","heritage":"2","heritage:RS:jurisdiction":"Завод за заштиту споменика културе Ниш","heritage:RS:name":"Зграда у Ул. М.Тита 22"},"geometry":{"type":"Point","coordinates":[21.89509,43.319929]}},{"type":"Feature","properties":{"ref:RS:nkd":"SK332","heritage:website":"https:\/\/nasledje.gov.rs\/index.cfm\/spomenici\/pregled_spomenika?spomenik_id=102677","heritage:RS:inscription_date":"1983-01-11","protect_class":"22","heritage":"2","heritage:RS:jurisdiction":"Завод за заштиту споменика културе Ниш","heritage:RS:name":"Кућа у Ул. Димитрија Димитријевића 52"},"geometry":{"type":"Point","coordinates":[21.897759,43.313322]}},{"type":"Feature","properties":{"ref:RS:nkd":"SK744","heritage:website":"https:\/\/nasledje.gov.rs\/index.cfm\/spomenici\/pregled_spomenika?spomenik_id=103113","heritage:RS:inscription_date":"1988-02-17","protect_class":"22","heritage":"2","heritage:RS:jurisdiction":"Завод за заштиту споменика културе Ниш","heritage:RS:name":"Зграда у Ул. Лоле Рибара 2 ( Апелова зграда)"},"geometry":{"type":"Point","coordinates":[21.900341,43.321308]}},{"type":"Feature","properties":{"ref:RS:nkd":"SK1917","heritage:website":"https:\/\/nasledje.gov.rs\/index.cfm\/spomenici\/pregled_spomenika?spomenik_id=103419","wikipedia":"sr:Зграда Поште 1 у Нишу","wikidata":"Q20435415","heritage:RS:jurisdiction":"Завод за заштиту споменика културе Ниш","protect_class":"22","heritage":"2","heritage:RS:inscription_date":"2005-06-14","heritage:RS:name":"Зграда Поште 1 у Нишу"},"geometry":{"type":"Point","coordinates":[21.898688,43.320824]}},{"type":"Feature","properties":{"ref:RS:nkd":"SK1918","heritage:website":"https:\/\/nasledje.gov.rs\/index.cfm\/spomenici\/pregled_spomenika?spomenik_id=103420","wikipedia":"sr:Зграда Радио станице у Нишу","wikidata":"Q16088799","heritage:RS:jurisdiction":"Завод за заштиту споменика културе Ниш","protect_class":"22","heritage":"2","heritage:RS:inscription_date":"2005-06-14","heritage:RS:name":"Зграда Радио станице у Нишу"},"geometry":{"type":"Point","coordinates":[21.899615,43.32187]}},{"type":"Feature","properties":{"ref:RS:nkd":"SK1919","heritage:website":"https:\/\/nasledje.gov.rs\/index.cfm\/spomenici\/pregled_spomenika?spomenik_id=103421","heritage:RS:inscription_date":"2005-06-14","protect_class":"22","heritage":"2","heritage:RS:jurisdiction":"Завод за заштиту споменика културе Ниш","heritage:RS:name":"Зграда трговца Тодора Цекића"},"geometry":{"type":"Point","coordinates":[21.892972,43.317799]}},{"type":"Feature","properties":{"ref:RS:nkd":"SK1922","heritage:website":"https:\/\/nasledje.gov.rs\/index.cfm\/spomenici\/pregled_spomenika?spomenik_id=103430","wikipedia":"sr:Зграда Среског начелства у Нишу","wikidata":"Q25462469","heritage:RS:jurisdiction":"Завод за заштиту споменика културе Ниш","protect_class":"22","heritage":"2","heritage:RS:inscription_date":"2005-06-14","heritage:RS:name":"Зграда Среског начелства"},"geometry":{"type":"Point","coordinates":[21.900785,43.320616]}},{"type":"Feature","properties":{"ref:RS:nkd":"SK1932","heritage:website":"https:\/\/nasledje.gov.rs\/index.cfm\/spomenici\/pregled_spomenika?spomenik_id=103454","wikipedia":"sr:Зграда Симфонијског оркестра у Нишу","wikidata":"Q16088859","heritage:RS:jurisdiction":"Завод за заштиту споменика културе Ниш","protect_class":"22","heritage":"2","heritage:RS:inscription_date":"2005-06-14","heritage:RS:name":"Зграда Симфонијског оркестра"},"geometry":{"type":"Point","coordinates":[21.893534,43.320869]}},{"type":"Feature","properties":{"ref:RS:nkd":"SK1937","heritage:website":"https:\/\/nasledje.gov.rs\/index.cfm\/spomenici\/pregled_spomenika?spomenik_id=103459","wikipedia":"sr:Зграда Прве јавне библиотеке у Нишу","wikidata":"Q20435421","heritage:RS:jurisdiction":"Завод за заштиту споменика културе Ниш","protect_class":"22","heritage":"2","heritage:RS:inscription_date":"2005-06-14","heritage:RS:name":"Зграда Прве јавне библиотеке"},"geometry":{"type":"Point","coordinates":[21.898469,43.322553]}},{"type":"Feature","properties":{"ref:RS:nkd":"SK311","heritage:website":"https:\/\/nasledje.gov.rs\/index.cfm\/spomenici\/pregled_spomenika?spomenik_id=107063","heritage:RS:criteria":"great","wikipedia":"sr:Зграда Пастеровог завода","wikidata":"Q20435400","heritage:RS:jurisdiction":"Завод за заштиту споменика културе Ниш","protect_class":"22","heritage":"2","heritage:RS:inscription_date":"1982-12-23","heritage:RS:name":"Зграда Пастеровог завода"},"geometry":{"type":"Point","coordinates":[21.9139,43.316263]}},{"type":"Feature","properties":{"ref:RS:nkd":"SK458","heritage:website":"https:\/\/nasledje.gov.rs\/index.cfm\/spomenici\/pregled_spomenika?spomenik_id=107877","wikipedia":"sr:Зграда Народног позоришта у Нишу","wikidata":"Q16086343","heritage:RS:jurisdiction":"Завод за заштиту споменика културе Ниш","protect_class":"22","heritage":"2","heritage:RS:inscription_date":"1983-04-11","heritage:RS:name":"Зграда Народног позоришта"},"geometry":{"type":"Point","coordinates":[21.899925,43.320222]}},{"type":"Feature","properties":{"ref:RS:nkd":"SK333","heritage:website":"https:\/\/nasledje.gov.rs\/index.cfm\/spomenici\/pregled_spomenika?spomenik_id=107880","heritage:RS:criteria":"great","wikipedia":"sr:Зграда старог Начелства у Нишу","wikidata":"Q16083518","heritage:RS:jurisdiction":"Завод за заштиту споменика културе Ниш","protect_class":"22","heritage":"2","heritage:RS:inscription_date":"1983-01-11","heritage:RS:name":"Зграда Старог начелства-зграда Универзитета"},"geometry":{"type":"Point","coordinates":[21.893597,43.32299]}},{"type":"Feature","properties":{"ref:RS:nkd":"AN165","heritage:website":"https:\/\/nasledje.gov.rs\/index.cfm\/spomenici\/pregled_spomenika?spomenik_id=107928","heritage:RS:inscription_date":"2012-08-17","protect_class":"22","heritage":"2","heritage:RS:jurisdiction":"Завод за заштиту споменика културе Ниш","heritage:RS:name":"Локалитет Велика и Мала Баланица у Сићеву"},"geometry":{"type":"Point","coordinates":[22.08525,43.33685]}},{"type":"Feature","properties":{"ref:RS:nkd":"SK304","heritage:website":"https:\/\/nasledje.gov.rs\/index.cfm\/spomenici\/pregled_spomenika?spomenik_id=107939","heritage:RS:criteria":"great","wikipedia":"sr:Зграда Официрског дома у Нишу","wikidata":"Q16761173","heritage:RS:jurisdiction":"Завод за заштиту споменика културе Ниш","protect_class":"22","heritage":"2","heritage:RS:inscription_date":"1982-12-23","heritage:RS:name":"Зграда Официрског дома"},"geometry":{"type":"Point","coordinates":[21.898283,43.323452]}},{"type":"Feature","properties":{"ref:RS:nkd":"ZM25","heritage:website":"https:\/\/nasledje.gov.rs\/index.cfm\/spomenici\/pregled_spomenika?spomenik_id=108371","heritage:RS:inscription_date":"1993-12-04","protect_class":"22","heritage":"2","heritage:RS:jurisdiction":"Завод за заштиту споменика културе Ниш","heritage:RS:name":"Старо војно гробље на Делијском Вису"},"geometry":{"type":"Point","coordinates":[21.92958,43.307174]}},{"type":"Feature","properties":{"ref:RS:nkd":"ZM7","heritage:website":"https:\/\/nasledje.gov.rs\/index.cfm\/spomenici\/pregled_spomenika?spomenik_id=108526","heritage:RS:criteria":"exceptional","wikipedia":"sr:Спомен-парк Бубањ","wikidata":"Q1250054","heritage:RS:jurisdiction":"Републички завод за заштиту споменика културе – Београд","protect_class":"22","heritage":"2","heritage:RS:inscription_date":"1982-04-16","heritage:RS:name":"Споменик и спомен парк Бубањ"},"geometry":{"type":"Point","coordinates":[21.872277,43.305447]}},{"type":"Feature","properties":{"ref:RS:nkd":"SK230","heritage:website":"https:\/\/nasledje.gov.rs\/index.cfm\/spomenici\/pregled_spomenika?spomenik_id=108537","heritage:RS:criteria":"great","wikipedia":"sr:Манастир Свете Богородице Сићево","wikidata":"Q12960868","heritage:RS:jurisdiction":"Завод за заштиту споменика културе Ниш","protect_class":"22","heritage":"2","heritage:RS:inscription_date":"1982-06-21","heritage:RS:name":"Манастир Св. Богородице"},"geometry":{"type":"Point","coordinates":[22.072547,43.32945]}},{"type":"Feature","properties":{"ref:RS:nkd":"ZM71","heritage:website":"https:\/\/nasledje.gov.rs\/index.cfm\/spomenici\/pregled_spomenika?spomenik_id=108544","heritage:RS:inscription_date":"2010-12-17","protect_class":"22","heritage":"2","heritage:RS:jurisdiction":"Завод за заштиту споменика културе Ниш","heritage:RS:name":"Јеврејско гробље у Нишу"},"geometry":{"type":"Point","coordinates":[21.878518,43.321769]}},{"type":"Feature","properties":{"ref:RS:nkd":"SK680","heritage:website":"https:\/\/nasledje.gov.rs\/index.cfm\/spomenici\/pregled_spomenika?spomenik_id=108555","heritage:RS:inscription_date":"1986-12-25","protect_class":"22","heritage":"2","heritage:RS:jurisdiction":"Завод за заштиту споменика културе Ниш","heritage:RS:name":"Споменик на гробу Атанасија Петровића"},"geometry":{"type":"Point","coordinates":[21.890534,43.311337]}},{"type":"Feature","properties":{"ref:RS:nkd":"SK681","heritage:website":"https:\/\/nasledje.gov.rs\/index.cfm\/spomenici\/pregled_spomenika?spomenik_id=108556","heritage:RS:inscription_date":"1986-12-25","protect_class":"22","heritage":"2","heritage:RS:jurisdiction":"Завод за заштиту споменика културе Ниш","heritage:RS:name":"Споменик на гробу пуковника Милована Недића"},"geometry":{"type":"Point","coordinates":[21.890635,43.311276]}},{"type":"Feature","properties":{"ref:RS:nkd":"SK591","heritage:website":"https:\/\/nasledje.gov.rs\/index.cfm\/spomenici\/pregled_spomenika?spomenik_id=108557","heritage:RS:inscription_date":"1984-06-19","protect_class":"22","heritage":"2","heritage:RS:jurisdiction":"Завод за заштиту споменика културе Ниш","heritage:RS:name":"Црква Св. Арханђела Михаила"},"geometry":{"type":"Point","coordinates":[21.951249,43.360976]}},{"type":"Feature","properties":{"ref:RS:nkd":"SK682","heritage:website":"https:\/\/nasledje.gov.rs\/index.cfm\/spomenici\/pregled_spomenika?spomenik_id=108558","wikipedia":"sr:Споменик ослободиоцима Ниша","wikidata":"Q12759442","heritage:RS:jurisdiction":"Завод за заштиту споменика културе Ниш","protect_class":"22","heritage":"2","heritage:RS:inscription_date":"1986-12-25","heritage:RS:name":"Споменик ослободиоцима Ниша"},"geometry":{"type":"Point","coordinates":[21.895728,43.32125]}},{"type":"Feature","properties":{"ref:RS:nkd":"SK684","heritage:website":"https:\/\/nasledje.gov.rs\/index.cfm\/spomenici\/pregled_spomenika?spomenik_id=108560","heritage:RS:inscription_date":"1986-12-25","protect_class":"22","heritage":"2","heritage:RS:jurisdiction":"Завод за заштиту споменика културе Ниш","heritage:RS:name":"Стара кућа на спрат у улици Копитаревој број 7. у Нишу"},"geometry":{"type":"Point","coordinates":[21.895418,43.317909]}},{"type":"Feature","properties":{"ref:RS:nkd":"SK688","heritage:website":"https:\/\/nasledje.gov.rs\/index.cfm\/spomenici\/pregled_spomenika?spomenik_id=108564","heritage:RS:inscription_date":"1986-12-25","protect_class":"22","heritage":"2","heritage:RS:jurisdiction":"Завод за заштиту споменика културе Ниш","heritage:RS:name":"Споменик на гробу Станка Власотиначког"},"geometry":{"type":"Point","coordinates":[21.888968,43.310564]}},{"type":"Feature","properties":{"ref:RS:nkd":"SK689","heritage:website":"https:\/\/nasledje.gov.rs\/index.cfm\/spomenici\/pregled_spomenika?spomenik_id=108566","wikipedia":"sr:Ратно војно гробље Британског Комонвелта у Нишу","wikidata":"Q65197958","heritage:RS:jurisdiction":"Завод за заштиту споменика културе Ниш","protect_class":"22","heritage":"2","heritage:RS:inscription_date":"1986-12-25","heritage:RS:name":"Ратно војно гробље Британског Комонвелта"},"geometry":{"type":"Point","coordinates":[21.929292,43.307527]}},{"type":"Feature","properties":{"ref:RS:nkd":"SK690","heritage:website":"https:\/\/nasledje.gov.rs\/index.cfm\/spomenici\/pregled_spomenika?spomenik_id=108567","heritage:RS:inscription_date":"1986-12-25","protect_class":"22","heritage":"2","heritage:RS:jurisdiction":"Завод за заштиту споменика културе Ниш","heritage:RS:name":"Споменик на гробу Николе Рашића"},"geometry":{"type":"Point","coordinates":[21.889466,43.310716]}},{"type":"Feature","properties":{"ref:RS:nkd":"SK691","heritage:website":"https:\/\/nasledje.gov.rs\/index.cfm\/spomenici\/pregled_spomenika?spomenik_id=108568","heritage:RS:inscription_date":"1986-12-25","protect_class":"22","heritage":"2","heritage:RS:jurisdiction":"Завод за заштиту споменика културе Ниш","heritage:RS:name":"Спомен гробница на Синђелићевом тргу"},"geometry":{"type":"Point","coordinates":[21.900282,43.320909]}},{"type":"Feature","properties":{"ref:RS:nkd":"SK693","heritage:website":"https:\/\/nasledje.gov.rs\/index.cfm\/spomenici\/pregled_spomenika?spomenik_id=108570","heritage:RS:inscription_date":"1986-12-25","protect_class":"22","heritage":"2","heritage:RS:jurisdiction":"Завод за заштиту споменика културе Ниш","heritage:RS:name":"Спомен костурница учесницима Топличког устанка"},"geometry":{"type":"Point","coordinates":[21.894926,43.328119]}},{"type":"Feature","properties":{"ref:RS:nkd":"SK777","heritage:website":"https:\/\/nasledje.gov.rs\/index.cfm\/spomenici\/pregled_spomenika?spomenik_id=108604","heritage:RS:inscription_date":"1988-02-17","protect_class":"22","heritage":"2","heritage:RS:jurisdiction":"Завод за заштиту споменика културе Ниш","heritage:RS:name":"Средњовековни локалитет са остацима цркве Св. Пантелејмона и некрополом"},"geometry":{"type":"Point","coordinates":[21.910737,43.334244]}},{"type":"Feature","properties":{"ref:RS:nkd":"SK1912","heritage:website":"https:\/\/nasledje.gov.rs\/index.cfm\/spomenici\/pregled_spomenika?spomenik_id=108609","wikipedia":"sr:Манастир Светог Јована Крститеља код Горњег Матејевца","wikidata":"Q12754859","heritage:RS:jurisdiction":"Завод за заштиту споменика културе Ниш","protect_class":"22","heritage":"2","heritage:RS:inscription_date":"2005-06-14","heritage:RS:name":"Манастир Св. Јована Крститеља код Горњег Матејевца"},"geometry":{"type":"Point","coordinates":[21.969548,43.378447]}},{"type":"Feature","properties":{"ref:RS:nkd":"SK2056","heritage:website":"https:\/\/nasledje.gov.rs\/index.cfm\/spomenici\/pregled_spomenika?spomenik_id=108614","wikipedia":"sr:Црква Светог Николе у Нишу","wikidata":"Q16761511","heritage:RS:jurisdiction":"Завод за заштиту споменика културе Ниш","protect_class":"22","heritage":"2","heritage:RS:inscription_date":"2010-12-17","heritage:RS:name":"Црква Св. Николе у Нишу"},"geometry":{"type":"Point","coordinates":[21.902358,43.311463]}},{"type":"Feature","properties":{"ref:RS:nkd":"SK1010","heritage:website":"https:\/\/nasledje.gov.rs\/index.cfm\/spomenici\/pregled_spomenika?spomenik_id=108620","heritage:RS:inscription_date":"1993-07-14","protect_class":"22","heritage":"2","heritage:RS:jurisdiction":"Завод за заштиту споменика културе Ниш","heritage:RS:name":"Стара кућа тзв. \"Турска амбасада\""},"geometry":{"type":"Point","coordinates":[21.888282,43.318744]}},{"type":"Feature","properties":{"ref:RS:nkd":"SK1011","heritage:website":"https:\/\/nasledje.gov.rs\/index.cfm\/spomenici\/pregled_spomenika?spomenik_id=108621","wikipedia":"sr:Старо нишко гробље","wikidata":"Q42793858","heritage:RS:jurisdiction":"Завод за заштиту споменика културе Ниш","protect_class":"22","heritage":"2","heritage:RS:inscription_date":"1993-07-14","heritage:RS:name":"Старо нишко гробље"},"geometry":{"type":"Point","coordinates":[21.892336,43.311914]}},{"type":"Feature","properties":{"ref:RS:nkd":"SK1911","heritage:website":"https:\/\/nasledje.gov.rs\/index.cfm\/spomenici\/pregled_spomenika?spomenik_id=108622","heritage:RS:inscription_date":"2005-06-14","protect_class":"22","heritage":"2","heritage:RS:jurisdiction":"Завод за заштиту споменика културе Ниш","heritage:RS:name":"Црква Св. Петке код Доњег Матејевца"},"geometry":{"type":"Point","coordinates":[21.945352,43.36611]}},{"type":"Feature","properties":{"ref:RS:nkd":"SK2062","heritage:website":"https:\/\/nasledje.gov.rs\/index.cfm\/spomenici\/pregled_spomenika?spomenik_id=108623","heritage:RS:inscription_date":"2010-12-17","protect_class":"22","heritage":"2","heritage:RS:jurisdiction":"Завод за заштиту споменика културе Ниш","heritage:RS:name":"Црква Св. Николе у Каменици"},"geometry":{"type":"Point","coordinates":[21.94309,43.377265]}},{"type":"Feature","properties":{"ref:RS:nkd":"SK2094","heritage:website":"https:\/\/nasledje.gov.rs\/index.cfm\/spomenici\/pregled_spomenika?spomenik_id=108624","wikipedia":"sr:Породична кућа Бранка Миљковића у Нишу","wikidata":"Q20435405","heritage:RS:jurisdiction":"Завод за заштиту споменика културе Ниш","protect_class":"22","heritage":"2","heritage:RS:inscription_date":"2011-02-18","heritage:RS:name":"Породична кућа Бранка Миљковића у Нишу"},"geometry":{"type":"Point","coordinates":[21.912047,43.313608]}},{"type":"Feature","properties":{"ref:RS:nkd":"SK590","heritage:website":"https:\/\/nasledje.gov.rs\/index.cfm\/spomenici\/pregled_spomenika?spomenik_id=108626","wikipedia":"sr:Црква Светог Николе у Манастиру","wikidata":"Q25461654","heritage:RS:jurisdiction":"Завод за заштиту споменика културе Ниш","protect_class":"22","heritage":"2","heritage:RS:inscription_date":"1984-06-19","heritage:RS:name":"Црква Св. Николе у селу Манастир"},"geometry":{"type":"Point","coordinates":[22.061815,43.322383]}},{"type":"Feature","properties":{"ref:RS:nkd":"SK228","heritage:website":"https:\/\/nasledje.gov.rs\/index.cfm\/spomenici\/pregled_spomenika?spomenik_id=108709","heritage:RS:criteria":"great","wikipedia":"sr:Латинска црква у Горњем Матејевцу","wikidata":"Q12754468","heritage:RS:jurisdiction":"Завод за заштиту споменика културе Ниш","protect_class":"22","heritage":"2","heritage:RS:inscription_date":"1982-06-21","heritage:RS:name":"Латинска црква"},"geometry":{"type":"Point","coordinates":[21.962918,43.370124]}},{"type":"Feature","properties":{"ref:RS:nkd":"SK468","heritage:website":"https:\/\/nasledje.gov.rs\/index.cfm\/spomenici\/pregled_spomenika?spomenik_id=108714","heritage:RS:inscription_date":"1983-04-11","protect_class":"22","heritage":"2","heritage:RS:jurisdiction":"Завод за заштиту споменика културе Ниш","heritage:RS:name":"Зграда у Ул. С. Марковића 14"},"geometry":{"type":"Point","coordinates":[21.896799,43.319724]}},{"type":"Feature","properties":{"ref:RS:nkd":"SK467","heritage:website":"https:\/\/nasledje.gov.rs\/index.cfm\/spomenici\/pregled_spomenika?spomenik_id=108715","heritage:RS:inscription_date":"1983-04-11","protect_class":"22","heritage":"2","heritage:RS:jurisdiction":"Завод за заштиту споменика културе Ниш","heritage:RS:name":"Зграда у Ул. Станка Пауновића 7"},"geometry":{"type":"Point","coordinates":[21.894357,43.320666]}},{"type":"Feature","properties":{"ref:RS:nkd":"SK466","heritage:website":"https:\/\/nasledje.gov.rs\/index.cfm\/spomenici\/pregled_spomenika?spomenik_id=108716","heritage:RS:inscription_date":"1983-04-11","protect_class":"22","heritage":"2","heritage:RS:jurisdiction":"Завод за заштиту споменика културе Ниш","heritage:RS:name":"Зграда у Ул. Обилићев венац 18"},"geometry":{"type":"Point","coordinates":[21.89201,43.316526]}},{"type":"Feature","properties":{"ref:RS:nkd":"SK308","heritage:website":"https:\/\/nasledje.gov.rs\/index.cfm\/spomenici\/pregled_spomenika?spomenik_id=108717","wikipedia":"sr:Кућа Мишићевих у Нишу","wikidata":"Q25462490","heritage:RS:jurisdiction":"Завод за заштиту споменика културе Ниш","protect_class":"22","heritage":"2","heritage:RS:inscription_date":"1982-12-23","heritage:RS:name":"Кућа Мишићевих"},"geometry":{"type":"Point","coordinates":[21.901866,43.320787]}},{"type":"Feature","properties":{"ref:RS:nkd":"SK309","heritage:website":"https:\/\/nasledje.gov.rs\/index.cfm\/spomenici\/pregled_spomenika?spomenik_id=108718","wikipedia":"sr:Зграда Историјског архива у Нишу","wikidata":"Q20435329","heritage:RS:jurisdiction":"Завод за заштиту споменика културе Ниш","protect_class":"22","heritage":"2","heritage:RS:inscription_date":"1982-12-23","heritage:RS:name":"Зграда Историјског архива"},"geometry":{"type":"Point","coordinates":[21.89422,43.326585]}},{"type":"Feature","properties":{"ref:RS:nkd":"SK683","heritage:website":"https:\/\/nasledje.gov.rs\/index.cfm\/spomenici\/pregled_spomenika?spomenik_id=108719","heritage:RS:inscription_date":"1986-12-25","protect_class":"22","heritage":"2","heritage:RS:jurisdiction":"Завод за заштиту споменика културе Ниш","heritage:RS:name":"Гробница са бистом Павла Стојковића"},"geometry":{"type":"Point","coordinates":[21.893165,43.311986]}},{"type":"Feature","properties":{"ref:RS:nkd":"SK687","heritage:website":"https:\/\/nasledje.gov.rs\/index.cfm\/spomenici\/pregled_spomenika?spomenik_id=108721","heritage:RS:inscription_date":"1986-12-25","protect_class":"22","heritage":"2","heritage:RS:jurisdiction":"Завод за заштиту споменика културе Ниш","heritage:RS:name":"Гробница са спомеником Тодору Станковићу"},"geometry":{"type":"Point","coordinates":[21.891033,43.310395]}},{"type":"Feature","properties":{"ref:RS:nkd":"SK692","heritage:website":"https:\/\/nasledje.gov.rs\/index.cfm\/spomenici\/pregled_spomenika?spomenik_id=108723","heritage:RS:inscription_date":"1986-12-25","protect_class":"22","heritage":"2","heritage:RS:jurisdiction":"Завод за заштиту споменика културе Ниш","heritage:RS:name":"Гробница са спомеником Проки Јовкићу"},"geometry":{"type":"Point","coordinates":[21.891275,43.310821]}},{"type":"Feature","properties":{"ref:RS:nkd":"SK837","heritage:website":"https:\/\/nasledje.gov.rs\/index.cfm\/spomenici\/pregled_spomenika?spomenik_id=108725","wikipedia":"sr:Хотел Парк Ниш","wikidata":"Q16761503","heritage:RS:jurisdiction":"Завод за заштиту споменика културе Ниш","protect_class":"22","heritage":"2","heritage:RS:inscription_date":"1990-02-11","heritage:RS:name":"Зграда хотела \"Парк\""},"geometry":{"type":"Point","coordinates":[21.897254,43.322092]}},{"type":"Feature","properties":{"ref:RS:nkd":"SK838","heritage:website":"https:\/\/nasledje.gov.rs\/index.cfm\/spomenici\/pregled_spomenika?spomenik_id=108726","heritage:RS:inscription_date":"1990-02-11","protect_class":"22","heritage":"2","heritage:RS:jurisdiction":"Завод за заштиту споменика културе Ниш","heritage:RS:name":"Група зграда које чине недељиву целину, Ул. М.Тита 12, 14 и 16, Ниш"},"geometry":{"type":"Point","coordinates":[21.895219,43.320297]}},{"type":"Feature","properties":{"ref:RS:nkd":"SK841","heritage:website":"https:\/\/nasledje.gov.rs\/index.cfm\/spomenici\/pregled_spomenika?spomenik_id=108727","heritage:RS:inscription_date":"1990-02-11","protect_class":"22","heritage":"2","heritage:RS:jurisdiction":"Завод за заштиту споменика културе Ниш","heritage:RS:name":"Зграда у Ул. М.Тита 30"},"geometry":{"type":"Point","coordinates":[21.894968,43.31972]}},{"type":"Feature","properties":{"ref:RS:nkd":"SK842","heritage:website":"https:\/\/nasledje.gov.rs\/index.cfm\/spomenici\/pregled_spomenika?spomenik_id=108728","wikipedia":"sr:Палата Јовановић у Нишу","wikidata":"Q106612108","heritage:RS:jurisdiction":"Завод за заштиту споменика културе Ниш","protect_class":"22","heritage":"2","heritage:RS:inscription_date":"1990-02-11","heritage:RS:name":"Зграда у Ул. М.Тита 32"},"geometry":{"type":"Point","coordinates":[21.894998,43.319665]}},{"type":"Feature","properties":{"ref:RS:nkd":"SK843","heritage:website":"https:\/\/nasledje.gov.rs\/index.cfm\/spomenici\/pregled_spomenika?spomenik_id=108729","heritage:RS:inscription_date":"1990-02-11","protect_class":"22","heritage":"2","heritage:RS:jurisdiction":"Завод за заштиту споменика културе Ниш","heritage:RS:name":"Зграда у Ул. М.Тита 67"},"geometry":{"type":"Point","coordinates":[21.894812,43.317958]}},{"type":"Feature","properties":{"ref:RS:nkd":"SK844","heritage:website":"https:\/\/nasledje.gov.rs\/index.cfm\/spomenici\/pregled_spomenika?spomenik_id=108730","heritage:RS:inscription_date":"1990-02-11","protect_class":"22","heritage":"2","heritage:RS:jurisdiction":"Завод за заштиту споменика културе Ниш","heritage:RS:name":"Зграда Црвеног крста"},"geometry":{"type":"Point","coordinates":[21.894774,43.317723]}},{"type":"Feature","properties":{"ref:RS:nkd":"SK911","heritage:website":"https:\/\/nasledje.gov.rs\/index.cfm\/spomenici\/pregled_spomenika?spomenik_id=108731","heritage:RS:inscription_date":"1991-04-23","protect_class":"22","heritage":"2","heritage:RS:jurisdiction":"Завод за заштиту споменика културе Ниш","heritage:RS:name":"Зграда у Ул. Наде Томић 21"},"geometry":{"type":"Point","coordinates":[21.897219,43.31875]}},{"type":"Feature","properties":{"ref:RS:nkd":"SK745","heritage:website":"https:\/\/nasledje.gov.rs\/index.cfm\/spomenici\/pregled_spomenika?spomenik_id=108732","heritage:RS:inscription_date":"1988-02-17","protect_class":"22","heritage":"2","heritage:RS:jurisdiction":"Завод за заштиту споменика културе Ниш","heritage:RS:name":"Зграда у Ул. Орловића Павла 12"},"geometry":{"type":"Point","coordinates":[21.898825,43.321452]}},{"type":"Feature","properties":{"ref:RS:nkd":"SK746","heritage:website":"https:\/\/nasledje.gov.rs\/index.cfm\/spomenici\/pregled_spomenika?spomenik_id=108733","heritage:RS:inscription_date":"1988-02-17","protect_class":"22","heritage":"2","heritage:RS:jurisdiction":"Завод за заштиту споменика културе Ниш","heritage:RS:name":"Зграда у Ул. Првог устанка 2"},"geometry":{"type":"Point","coordinates":[21.894197,43.314386]}},{"type":"Feature","properties":{"ref:RS:nkd":"SK2065","heritage:website":"https:\/\/nasledje.gov.rs\/index.cfm\/spomenici\/pregled_spomenika?spomenik_id=108734","heritage:RS:inscription_date":"2010-12-17","protect_class":"22","heritage":"2","heritage:RS:jurisdiction":"Завод за заштиту споменика културе Ниш","heritage:RS:name":"Зграда на Тргу Павла Стојковића бр. 10-10а у Нишу"},"geometry":{"type":"Point","coordinates":[21.892435,43.31719]}},{"type":"Feature","properties":{"ref:RS:nkd":"SK748","heritage:website":"https:\/\/nasledje.gov.rs\/index.cfm\/spomenici\/pregled_spomenika?spomenik_id=108735","heritage:RS:inscription_date":"1988-02-17","protect_class":"22","heritage":"2","heritage:RS:jurisdiction":"Завод за заштиту споменика културе Ниш","heritage:RS:name":"Група зграда које чине недељиву целину на Тргу Ослобођења"},"geometry":{"type":"Point","coordinates":[21.89536,43.32177]}},{"type":"Feature","properties":{"ref:RS:nkd":"SK1057","heritage:website":"https:\/\/nasledje.gov.rs\/index.cfm\/spomenici\/pregled_spomenika?spomenik_id=108736","heritage:RS:inscription_date":"1994-03-01","protect_class":"22","heritage":"2","heritage:RS:jurisdiction":"Завод за заштиту споменика културе Ниш","heritage:RS:name":"Зграда у Ул. Пријездина 5"},"geometry":{"type":"Point","coordinates":[21.895841,43.316571]}},{"type":"Feature","properties":{"ref:RS:nkd":"SK1058","heritage:website":"https:\/\/nasledje.gov.rs\/index.cfm\/spomenici\/pregled_spomenika?spomenik_id=108737","heritage:RS:inscription_date":"1994-03-01","protect_class":"22","heritage":"2","heritage:RS:jurisdiction":"Завод за заштиту споменика културе Ниш","heritage:RS:name":"Зграда у Ул. Станка Пауновића 36"},"geometry":{"type":"Point","coordinates":[21.890126,43.320126]}},{"type":"Feature","properties":{"ref:RS:nkd":"SK1061","heritage:website":"https:\/\/nasledje.gov.rs\/index.cfm\/spomenici\/pregled_spomenika?spomenik_id=108738","wikipedia":"sr:Зграда Трговачког дома у Нишу","wikidata":"Q106703688","heritage:RS:jurisdiction":"Завод за заштиту споменика културе Ниш","protect_class":"22","heritage":"2","heritage:RS:inscription_date":"1994-03-01","heritage:RS:name":"Зграда у Ул. Станка Пауновића 39"},"geometry":{"type":"Point","coordinates":[21.891441,43.320124]}},{"type":"Feature","properties":{"ref:RS:nkd":"SK750","heritage:website":"https:\/\/nasledje.gov.rs\/index.cfm\/spomenici\/pregled_spomenika?spomenik_id=108739","heritage:RS:inscription_date":"1988-02-17","protect_class":"22","heritage":"2","heritage:RS:jurisdiction":"Завод за заштиту споменика културе Ниш","heritage:RS:name":"Зграда Андона Андоновића"},"geometry":{"type":"Point","coordinates":[21.895117,43.319162]}},{"type":"Feature","properties":{"ref:RS:nkd":"SK751","heritage:website":"https:\/\/nasledje.gov.rs\/index.cfm\/spomenici\/pregled_spomenika?spomenik_id=108740","wikipedia":"sr:Зграда инжињеријске касарне у Нишу","wikidata":"Q20435323","heritage:RS:jurisdiction":"Завод за заштиту споменика културе Ниш","protect_class":"22","heritage":"2","heritage:RS:inscription_date":"1988-02-17","heritage:RS:name":"Зграда инжињеријске касарне"},"geometry":{"type":"Point","coordinates":[21.881342,43.315166]}},{"type":"Feature","properties":{"ref:RS:nkd":"SK2084","heritage:website":"https:\/\/nasledje.gov.rs\/index.cfm\/spomenici\/pregled_spomenika?spomenik_id=108741","heritage:RS:inscription_date":"2011-02-18","protect_class":"22","heritage":"2","heritage:RS:jurisdiction":"Завод за заштиту споменика културе Ниш","heritage:RS:name":"Зграда на Тргу Павла Стојковића бр. 6 у Нишу"},"geometry":{"type":"Point","coordinates":[21.892124,43.317302]}},{"type":"Feature","properties":{"ref:RS:nkd":"SK2085","heritage:website":"https:\/\/nasledje.gov.rs\/index.cfm\/spomenici\/pregled_spomenika?spomenik_id=108742","heritage:RS:inscription_date":"2011-02-18","protect_class":"22","heritage":"2","heritage:RS:jurisdiction":"Завод за заштиту споменика културе Ниш","heritage:RS:name":"Зграда на Тргу Павла Стојковића бр. 12 у Нишу"},"geometry":{"type":"Point","coordinates":[21.892664,43.31702]}},{"type":"Feature","properties":{"ref:RS:nkd":"SK2086","heritage:website":"https:\/\/nasledje.gov.rs\/index.cfm\/spomenici\/pregled_spomenika?spomenik_id=108743","heritage:RS:inscription_date":"2011-02-18","protect_class":"22","heritage":"2","heritage:RS:jurisdiction":"Завод за заштиту споменика културе Ниш","heritage:RS:name":"Зграда у ул. Обилићев венац бр. 20 у Нишу"},"geometry":{"type":"Point","coordinates":[21.891842,43.316459]}},{"type":"Feature","properties":{"ref:RS:nkd":"SK2087","heritage:website":"https:\/\/nasledje.gov.rs\/index.cfm\/spomenici\/pregled_spomenika?spomenik_id=108744","heritage:RS:inscription_date":"2011-02-18","protect_class":"22","heritage":"2","heritage:RS:jurisdiction":"Завод за заштиту споменика културе Ниш","heritage:RS:name":"Зграда у ул. Обилићев венац бр. 22 у Нишу"},"geometry":{"type":"Point","coordinates":[21.891626,43.316412]}},{"type":"Feature","properties":{"ref:RS:nkd":"SK858","heritage:website":"https:\/\/nasledje.gov.rs\/index.cfm\/spomenici\/pregled_spomenika?spomenik_id=108745","wikipedia":"sr:Кућа Поповића у Нишу","wikidata":"Q20436764","heritage:RS:jurisdiction":"Завод за заштиту споменика културе Ниш","protect_class":"22","heritage":"2","heritage:RS:inscription_date":"1990-02-11","heritage:RS:name":"Кућа Поповића"},"geometry":{"type":"Point","coordinates":[21.896755,43.315994]}},{"type":"Feature","properties":{"ref:RS:nkd":"SK860","heritage:website":"https:\/\/nasledje.gov.rs\/index.cfm\/spomenici\/pregled_spomenika?spomenik_id=108746","wikipedia":"sr:Црква Светих арханђела Михаила и Гаврила у Нишу","wikidata":"Q26257777","heritage:RS:jurisdiction":"Завод за заштиту споменика културе Ниш","protect_class":"22","heritage":"2","heritage:RS:inscription_date":"1990-02-11","heritage:RS:name":"Црква Св. Арханђела (Мали саборни храм)"},"geometry":{"type":"Point","coordinates":[21.895723,43.314727]}},{"type":"Feature","properties":{"ref:RS:nkd":"SK1934","heritage:website":"https:\/\/nasledje.gov.rs\/index.cfm\/spomenici\/pregled_spomenika?spomenik_id=108747","heritage:RS:inscription_date":"2005-06-14","protect_class":"22","heritage":"2","heritage:RS:jurisdiction":"Завод за заштиту споменика културе Ниш","heritage:RS:name":"Зграда Гимназије \"Стеван Сремац\""},"geometry":{"type":"Point","coordinates":[21.90238,43.320575]}},{"type":"Feature","properties":{"ref:RS:nkd":"SK1931","heritage:website":"https:\/\/nasledje.gov.rs\/index.cfm\/spomenici\/pregled_spomenika?spomenik_id=108748","wikipedia":"sr:Зграда Учитељског дома у Нишу","wikidata":"Q20435448","heritage:RS:jurisdiction":"Завод за заштиту споменика културе Ниш","protect_class":"22","heritage":"2","heritage:RS:inscription_date":"2005-06-14","heritage:RS:name":"Зграда Учитељског дома"},"geometry":{"type":"Point","coordinates":[21.901267,43.321508]}},{"type":"Feature","properties":{"ref:RS:nkd":"SK1915","heritage:website":"https:\/\/nasledje.gov.rs\/index.cfm\/spomenici\/pregled_spomenika?spomenik_id=108749","heritage:RS:inscription_date":"2005-06-14","protect_class":"22","heritage":"2","heritage:RS:jurisdiction":"Завод за заштиту споменика културе Ниш","heritage:RS:name":"Зграда Хранта Мумџијана"},"geometry":{"type":"Point","coordinates":[21.890206,43.321835]}},{"type":"Feature","properties":{"ref:RS:nkd":"SK868","heritage:website":"https:\/\/nasledje.gov.rs\/index.cfm\/spomenici\/pregled_spomenika?spomenik_id=108751","heritage:RS:inscription_date":"1990-02-11","protect_class":"22","heritage":"2","heritage:RS:jurisdiction":"Завод за заштиту споменика културе Ниш","heritage:RS:name":"Зграда у Ул. Југ Богдановој 3"},"geometry":{"type":"Point","coordinates":[21.89159,43.316659]}},{"type":"Feature","properties":{"ref:RS:nkd":"SK869","heritage:website":"https:\/\/nasledje.gov.rs\/index.cfm\/spomenici\/pregled_spomenika?spomenik_id=108752","heritage:RS:inscription_date":"1990-02-11","protect_class":"22","heritage":"2","heritage:RS:jurisdiction":"Завод за заштиту споменика културе Ниш","heritage:RS:name":"Зграда на Кеју 29. децембра 10-12"},"geometry":{"type":"Point","coordinates":[21.899608,43.324703]}},{"type":"Feature","properties":{"ref:RS:nkd":"SK1009","heritage:website":"https:\/\/nasledje.gov.rs\/index.cfm\/spomenici\/pregled_spomenika?spomenik_id=108753","wikipedia":"sr:Зграда бившег затвора специјалне полиције у Нишу","wikidata":"Q20435256","heritage:RS:jurisdiction":"Завод за заштиту споменика културе Ниш","protect_class":"22","heritage":"2","heritage:RS:inscription_date":"1993-07-14","heritage:RS:name":"Зграда бившег затвора специјалне полиције"},"geometry":{"type":"Point","coordinates":[21.89056,43.320774]}},{"type":"Feature","properties":{"ref:RS:nkd":"SK2063","heritage:website":"https:\/\/nasledje.gov.rs\/index.cfm\/spomenici\/pregled_spomenika?spomenik_id=108755","heritage:RS:inscription_date":"2010-12-17","protect_class":"22","heritage":"2","heritage:RS:jurisdiction":"Завод за заштиту споменика културе Ниш","heritage:RS:name":"Вила апотекара Величковића у Нишкој Бањи"},"geometry":{"type":"Point","coordinates":[22.005186,43.293166]}},{"type":"Feature","properties":{"ref:RS:nkd":"PKIC30","heritage:website":"https:\/\/nasledje.gov.rs\/index.cfm\/spomenici\/pregled_spomenika?spomenik_id=108787","heritage:RS:inscription_date":"1993-12-04","protect_class":"22","heritage":"2","heritage:RS:jurisdiction":"Завод за заштиту споменика културе Ниш","heritage:RS:name":"Комплекс Дуванске индустрије"},"geometry":{"type":"Point","coordinates":[21.883008,43.333293]}},{"type":"Feature","properties":{"ref:RS:nkd":"AN47","heritage:website":"https:\/\/nasledje.gov.rs\/index.cfm\/spomenici\/pregled_spomenika?spomenik_id=108872","heritage:RS:criteria":"great","wikipedia":"sr:Кулина (Балајнац)","wikidata":"Q12754315","heritage:RS:jurisdiction":"Завод за заштиту споменика културе Ниш","protect_class":"22","heritage":"2","heritage:RS:inscription_date":"1983-12-20","heritage:RS:name":"Кулина (Балајнац)"},"geometry":{"type":"Point","coordinates":[21.76558,43.267232]}},{"type":"Feature","properties":{"ref:RS:nkd":"AN48","heritage:website":"https:\/\/nasledje.gov.rs\/index.cfm\/spomenici\/pregled_spomenika?spomenik_id=108873","heritage:RS:inscription_date":"1983-12-20","protect_class":"22","heritage":"2","heritage:RS:jurisdiction":"Завод за заштиту споменика културе Ниш","heritage:RS:name":"Римска грађевина са мозаиком на Коњском гробљу"},"geometry":{"type":"Point","coordinates":[21.891615,43.339478]}},{"type":"Feature","properties":{"ref:RS:nkd":"AN42","heritage:website":"https:\/\/nasledje.gov.rs\/index.cfm\/spomenici\/pregled_spomenika?spomenik_id=108993","heritage:RS:criteria":"great","wikipedia":"sr:Хумска чука","wikidata":"Q12760974","heritage:RS:jurisdiction":"Завод за заштиту споменика културе Ниш","protect_class":"22","heritage":"2","heritage:RS:inscription_date":"1983-12-20","heritage:RS:name":"Велика Хумска Чука"},"geometry":{"type":"Point","coordinates":[21.898139,43.378591]}},{"type":"Feature","properties":{"ref:RS:nkd":"PKIC31","heritage:website":"https:\/\/nasledje.gov.rs\/index.cfm\/spomenici\/pregled_spomenika?spomenik_id=109051","heritage:RS:inscription_date":"1993-12-04","protect_class":"22","heritage":"2","heritage:RS:jurisdiction":"Завод за заштиту споменика културе Ниш","heritage:RS:name":"Шире подручје Ул. М.Тита"},"geometry":{"type":"Point","coordinates":[21.895081,43.319524]}},{"type":"Feature","properties":{"ref:RS:nkd":"SK867","heritage:website":"https:\/\/nasledje.gov.rs\/index.cfm\/spomenici\/pregled_spomenika?spomenik_id=109110","heritage:RS:inscription_date":"1990-02-11","protect_class":"22","heritage":"2","heritage:RS:jurisdiction":"Завод за заштиту споменика културе Ниш","heritage:RS:name":"Зграда у Ул. Светозара Марковића 40"},"geometry":{"type":"Point","coordinates":[21.891981,43.319634]}},{"type":"Feature","properties":{"ref:RS:nkd":"SK686","heritage:website":"https:\/\/nasledje.gov.rs\/index.cfm\/spomenici\/pregled_spomenika?spomenik_id=109138","heritage:RS:inscription_date":"1986-12-25","protect_class":"22","heritage":"2","heritage:RS:jurisdiction":"Завод за заштиту споменика културе Ниш","heritage:RS:name":"Гробница са спомеником сердару Јолу Пилетићу"},"geometry":{"type":"Point","coordinates":[21.88915,43.311013]}},{"type":"Feature","properties":{"ref:RS:nkd":"AN43","heritage:website":"https:\/\/nasledje.gov.rs\/index.cfm\/spomenici\/pregled_spomenika?spomenik_id=109141","heritage:RS:inscription_date":"1983-12-20","protect_class":"22","heritage":"2","heritage:RS:jurisdiction":"Завод за заштиту споменика културе Ниш","heritage:RS:name":" Археолошко налазиште Бубањ"},"geometry":{"type":"Point","coordinates":[21.828666,43.320765]}},{"type":"Feature","properties":{"ref:RS:nkd":"SK289","heritage:website":"https:\/\/nasledje.gov.rs\/index.cfm\/spomenici\/pregled_spomenika?spomenik_id=109170","heritage:RS:inscription_date":"1982-12-23","heritage:RS:criteria":"great","protect_class":"22","heritage":"2","heritage:RS:jurisdiction":"Завод за заштиту споменика културе Ниш","heritage:RS:name":"Нишка тврђава"},"geometry":{"type":"Point","coordinates":[21.894601,43.325522]}},{"type":"Feature","properties":{"ref:RS:nkd":"SK743","heritage:website":"https:\/\/nasledje.gov.rs\/index.cfm\/spomenici\/pregled_spomenika?spomenik_id=109243","wikipedia":"sr:Саборна црква у Нишу","wikidata":"Q11005676","heritage:RS:jurisdiction":"Завод за заштиту споменика културе Ниш","protect_class":"22","heritage":"2","heritage:RS:inscription_date":"1988-02-17","heritage:RS:name":"Саборна црква Св. Тројице"},"geometry":{"type":"Point","coordinates":[21.896232,43.315154]}},{"type":"Feature","properties":{"ref:RS:nkd":"SK329","heritage:website":"https:\/\/nasledje.gov.rs\/index.cfm\/spomenici\/pregled_spomenika?spomenik_id=109264","wikipedia":"sr:Кућа Стамболијских","wikidata":"Q16086077","heritage:RS:jurisdiction":"Завод за заштиту споменика културе Ниш","protect_class":"22","heritage":"2","heritage:RS:inscription_date":"1983-01-11","heritage:RS:name":"Кућа Стамболијских"},"geometry":{"type":"Point","coordinates":[21.893225,43.318686]}},{"type":"Feature","properties":{"ref:RS:nkd":"AN59","heritage:website":"https:\/\/nasledje.gov.rs\/index.cfm\/spomenici\/pregled_spomenika?spomenik_id=109297","heritage:RS:inscription_date":"1986-03-20","protect_class":"22","heritage":"2","heritage:RS:jurisdiction":"Завод за заштиту споменика културе Ниш","heritage:RS:name":"Део византијске некрополе"},"geometry":{"type":"Point","coordinates":[21.90782,43.329341]}},{"type":"Feature","properties":{"ref:RS:nkd":"SK290","heritage:website":"https:\/\/nasledje.gov.rs\/index.cfm\/spomenici\/pregled_spomenika?spomenik_id=109299","heritage:RS:criteria":"exceptional","wikipedia":"sr:Рановизантијска гробница са фрескама у Нишу","wikidata":"Q12758181","heritage:RS:jurisdiction":"Републички завод за заштиту споменика културе – Београд","protect_class":"22","heritage":"2","heritage:RS:inscription_date":"1982-12-23","heritage:RS:name":"Рановизантијска гробница у Јагодин Мали"},"geometry":{"type":"Point","coordinates":[21.908332,43.329785]}},{"type":"Feature","properties":{"ref:RS:nkd":"AN189","heritage:website":"https:\/\/nasledje.gov.rs\/index.cfm\/spomenici\/pregled_spomenika?spomenik_id=109304","heritage:RS:inscription_date":"2015-04-17","protect_class":"22","heritage":"2","heritage:RS:jurisdiction":"Завод за заштиту споменика културе Ниш","heritage:RS:name":"Ранохрићанска гробница са Христограмом у Јагодин мали у Нишу"},"geometry":{"type":"Point","coordinates":[21.90572,43.328084]}},{"type":"Feature","properties":{"ref:RS:nkd":"SK1012","heritage:website":"https:\/\/nasledje.gov.rs\/index.cfm\/spomenici\/pregled_spomenika?spomenik_id=109307","heritage:RS:inscription_date":"1993-07-14","protect_class":"22","heritage":"2","heritage:RS:jurisdiction":"Завод за заштиту споменика културе Ниш","heritage:RS:name":"Византијска гробница код Јагодинмалског моста са мартиријумом"},"geometry":{"type":"Point","coordinates":[21.902763,43.327554]}},{"type":"Feature","properties":{"ref:RS:nkd":"AN158","heritage:website":"https:\/\/nasledje.gov.rs\/index.cfm\/spomenici\/pregled_spomenika?spomenik_id=109308","wikipedia":"sr:Ранохришћанска гробница у Нишкој Бањи","wikidata":"Q16087976","heritage:RS:jurisdiction":"Завод за заштиту споменика културе Ниш","protect_class":"22","heritage":"2","heritage:RS:inscription_date":"2012-08-17","heritage:RS:name":"Касноантичка гробница у Нишкој Бањи"},"geometry":{"type":"Point","coordinates":[22.006756,43.293712]}},{"type":"Feature","properties":{"ref:RS:nkd":"SK677","heritage:website":"https:\/\/nasledje.gov.rs\/index.cfm\/spomenici\/pregled_spomenika?spomenik_id=109331","wikipedia":"sr:Џамија Ислам-аге Хадровића у Нишу","wikidata":"Q3396996","heritage:RS:jurisdiction":"Завод за заштиту споменика културе Ниш","protect_class":"22","heritage":"2","heritage:RS:inscription_date":"1986-12-25","heritage:RS:name":"Џамија у Ул. Станка Пауновића"},"geometry":{"type":"Point","coordinates":[21.893131,43.320487]}},{"type":"Feature","properties":{"ref:RS:nkd":"SK836","heritage:website":"https:\/\/nasledje.gov.rs\/index.cfm\/spomenici\/pregled_spomenika?spomenik_id=109342","wikipedia":"sr:Зграда комунистичке општине у Нишу","wikidata":"Q20435340","heritage:RS:jurisdiction":"Завод за заштиту споменика културе Ниш","protect_class":"22","heritage":"2","heritage:RS:inscription_date":"1990-02-11","heritage:RS:name":"Зграда комунистичке општине"},"geometry":{"type":"Point","coordinates":[21.892803,43.317477]}},{"type":"Feature","properties":{"ref:RS:nkd":"SK1916","heritage:website":"https:\/\/nasledje.gov.rs\/index.cfm\/spomenici\/pregled_spomenika?spomenik_id=109350","heritage:RS:inscription_date":"2005-06-14","protect_class":"22","heritage":"2","heritage:RS:jurisdiction":"Завод за заштиту споменика културе Ниш","heritage:RS:name":"Старо купатило са базенима 3 и 4 у Нишкој Бањи"},"geometry":{"type":"Point","coordinates":[22.007935,43.29223]}},{"type":"Feature","properties":{"ref:RS:nkd":"SK1059","heritage:website":"https:\/\/nasledje.gov.rs\/index.cfm\/spomenici\/pregled_spomenika?spomenik_id=109357","heritage:RS:inscription_date":"1994-03-01","protect_class":"22","heritage":"2","heritage:RS:jurisdiction":"Завод за заштиту споменика културе Ниш","heritage:RS:name":"Зграда Уметничке колоније"},"geometry":{"type":"Point","coordinates":[22.086731,43.339522]}},{"type":"Feature","properties":{"ref:RS:nkd":"AN22","heritage:website":"https:\/\/nasledje.gov.rs\/index.cfm\/spomenici\/pregled_spomenika?spomenik_id=109383","heritage:RS:criteria":"exceptional","wikipedia":"sr:Медијана (Ниш)","wikidata":"Q960839","heritage:RS:jurisdiction":"Републички завод за заштиту споменика културе – Београд","protect_class":"22","heritage":"2","heritage:RS:inscription_date":"1981-12-19","heritage:RS:name":"Бресје-Медијана. Брзи Брод"},"geometry":{"type":"Point","coordinates":[21.948492,43.309767]}},{"type":"Feature","properties":{"ref:RS:nkd":"SK218","heritage:website":"https:\/\/nasledje.gov.rs\/index.cfm\/spomenici\/pregled_spomenika?spomenik_id=109384","heritage:RS:criteria":"exceptional","wikipedia":"sr:Ћеле-кула","wikidata":"Q336310","heritage:RS:jurisdiction":"Републички завод за заштиту споменика културе – Београд","protect_class":"22","heritage":"2","heritage:RS:inscription_date":"1982-06-21","heritage:RS:name":"Ћеле кула"},"geometry":{"type":"Point","coordinates":[21.923762,43.312111]}},{"type":"Feature","properties":{"ref:RS:nkd":"ZM13","heritage:website":"https:\/\/nasledje.gov.rs\/index.cfm\/spomenici\/pregled_spomenika?spomenik_id=109424","heritage:RS:criteria":"exceptional","wikipedia":"sr:Чегар","wikidata":"Q3066255","heritage:RS:jurisdiction":"Републички завод за заштиту споменика културе – Београд","protect_class":"22","heritage":"2","heritage:RS:inscription_date":"1986-12-25","heritage:RS:name":"Чегар - место из Првог српског устанка"},"geometry":{"type":"Point","coordinates":[21.942709,43.36542]}}]}