{"type":"FeatureCollection",
 "features":
 [{"type":"Feature",
   "properties":{"amenity":"post_office"},
   "geometry":
   {"type":"Point", "coordinates":[20.4695484, 44.8519436]}},
  {"type":"Feature",
   "properties":{"amenity":"post_office"},
   "geometry":
   {"type":"Point", "coordinates":[20.2491517, 44.1672866]}},
  {"type":"Feature",
   "properties":{"amenity":"post_office"},
   "geometry":
   {"type":"Point", "coordinates":[20.9130472, 44.0098033]}},
  {"type":"Feature",
   "properties":
   {"addr:city":"Novi Sad",
    "addr:country":"RS",
    "addr:postcode":"21000",
    "amenity":"post_office",
    "building":"yes",
    "name":"Пошта Рибарац",
    "survey:date":"2014-11-07"},
   "geometry":
   {"type":"Point", "coordinates":[19.8331359, 45.2293999]}},
  {"type":"Feature",
   "properties":{"amenity":"post_office"},
   "geometry":
   {"type":"Point", "coordinates":[20.9104642, 44.018875]}},
  {"type":"Feature",
   "properties":
   {"amenity":"post_office",
    "name":"Пошта Станово",
    "name:sr":"Пошта Станово",
    "name:sr-Latn":"Pošta Stanovo"},
   "geometry":
   {"type":"Point", "coordinates":[20.8855555, 43.9990725]}},
  {"type":"Feature",
   "properties":{"amenity":"post_office"},
   "geometry":
   {"type":"Point", "coordinates":[19.7995102, 45.246475]}},
  {"type":"Feature",
   "properties":{"amenity":"post_office"},
   "geometry":
   {"type":"Point", "coordinates":[20.4579788, 44.8216644]}},
  {"type":"Feature",
   "properties":
   {"amenity":"post_office",
    "name":"Пошта Ердоглија",
    "name:sr":"Пошта Ердоглија",
    "name:sr-Latn":"Pošta Erdoglija"},
   "geometry":
   {"type":"Point", "coordinates":[20.8973239, 44.0129687]}}]}
